{
    "type": "FeatureCollection",
    "features": [
        {
            "type": "Feature",
            "properties": {
                "radar_id": 6477,
                "name": "Wideumont",
                "country": "BE",
                "type": "weather"
            },
            "geometry": {
                "type": "Point",
                "coordinates": [
                    5.5045,
                    49.914
                ]
            }
        },
        {
            "type": "Feature",
            "properties": {
                "radar_id": 6451,
                "name": "Zaventem",
                "country": "BE",
                "type": "weather"
            },
            "geometry": {
                "type": "Point",
                "coordinates": [
                    4.451,
                    50.901
                ]
            }
        },
        {
            "type": "Feature",
            "properties": {
                "radar_id": 6410,
                "name": "Jabbeke",
                "country": "BE",
                "type": "weather"
            },
            "geometry": {
                "type": "Point",
                "coordinates": [
                    3.0654,
                    51.1927
                ]
            }
        },
        {
            "type": "Feature",
            "properties": {
                "radar_id": 6260,
                "name": "De Bilt",
                "country": "NL",
                "type": "weather"
            },
            "geometry": {
                "type": "Point",
                "coordinates": [
                    5.1783,
                    52.1017
                ]
            }
        },
        {
            "type": "Feature",
            "properties": {
                "radar_id": 6234,
                "name": "Den Helder",
                "country": "NL",
                "type": "weather"
            },
            "geometry": {
                "type": "Point",
                "coordinates": [
                    4.7899,
                    52.9533
                ]
            }
        }
    ]
}